stop_id,stop_name,stop_lat,stop_lon,location_type
499718,Derry St & S 15th St,40.262547,-76.86541,0
499720,Berryhill St & S 21st St,40.262623,-76.853706,0
499722,Derry St & S 15th St,40.262669,-76.865196,0
499724,Derry St & S 15th St,40.262672,-76.865204,0
499730,Mulberry St & Hummel St,40.262737,-76.8703,0
499736,Derry St & S 14th St,40.262783,-76.867287,0
499744,Walnut St opp. 4th St,40.262871,-76.881241,0
499745,Derry St & S 14th St,40.262917,-76.867104,0
3405147,Grandview Ave @ #245,40.259972,-76.919983,0
499751,Derry St & S 13th St,40.263,-76.868645,0
499753,N 3rd St opp. Pine St,40.26292,-76.883942,0
499760,Berryhill St & S 22nd St,40.263016,-76.851715,0
499761,Derry St opp. Lincoln Ave,40.263039,-76.788719,0
499762,S 13th St & Derry St,40.262959,-76.86866,0
499763,Derry St & S 13th St,40.263134,-76.868706,0
499768,S 13th St & Derry St,40.263149,-76.868835,0
499770,N 3rd St & South St,40.263187,-76.884392,0
499771,Berryhill St & S 22nd St,40.263214,-76.851624,0
499780,Commonwealth Ave & Walnut St,40.263382,-76.880829,0
499792,Walnut St & Commonwealth Ave,40.263477,-76.880646,0
499796,Derry St opp. N 61st St,40.263512,-76.782127,0
499800,Berryhill St & S 23rd St,40.263592,-76.849632,0
499802,Yverdon Dr & Old Orchard Ln,40.263702,-76.914742,0
499804,Derry St & N 61st St,40.263676,-76.782059,0
499805,Berryhill St opp. S 23rd St,40.263767,-76.84964,0
499806,Market St opp. N 9th St,40.263851,-76.876831,0
499810,N 3rd St & State St,40.264042,-76.884995,0
499813,N 3rd St & State St,40.263847,-76.884758,0
499817,N 3rd St & State St,40.263988,-76.885071,0
499822,S Cameron St & Market St,40.264019,-76.874428,0
499823,Berryhill St & Platt St,40.264088,-76.847939,0
499824,63rd St & Derry St,40.264091,-76.778183,0
499826,Erford Rd & Meadow Dr,40.26424,-76.921341,0
499829,Market St & 10th St,40.264202,-76.875862,0
499830,Berryhill St & S 24th St,40.26437,-76.847435,0
931177,Shannon Dr & Allentown Blvd,40.326164,-76.774734,0
499832,S 13th St & Vernon St,40.26445,-76.869362,0
499835,Market St & Cameron St,40.26453,-76.874397,0
499837,Echo Rd & W Foxcroft Dr,40.264492,-76.919083,0
499838,Meadow Dr & Mallard Rd,40.264572,-76.920509,0
499839,S 13th St & Chestnut St,40.264618,-76.869537,0
499840,Market St & Cameron St,40.264576,-76.874451,0
499843,Rupley Rd & Yverdon Dr,40.264721,-76.915535,0
499848,Hale Ave & Berryhill St,40.26487,-76.84568,0
3405164,Grandview Ave @ #225,40.259472,-76.921356,0
499853,N Front St & Haldeman St,40.264977,-76.909096,0
499854,Derry St opp. Newsong Village,40.264988,-76.762024,0
499855,Echo Rd & Rupley Rd,40.264999,-76.917938,0
499856,Derry St @ Newsong Village,40.265121,-76.761894,0
499858,N 3rd St & North St,40.264915,-76.88559,0
499859,N Front St opp. Haldeman St,40.265034,-76.90892,0
499860,N 3rd St & North St,40.265038,-76.885605,0
499861,Yverdon Dr opp. E Crestwood Dr,40.265244,-76.915894,0
499862,Market St & S Summit St,40.265324,-76.871735,0
499865,Market St opp. S Summit St,40.265263,-76.872215,0
499872,Hale Ave opp. Kensington St,40.265583,-76.845787,0
499873,Hale Ave & Kensington St,40.265587,-76.846046,0
499874,Forster St & Green St,40.265659,-76.887825,0
499875,Market St & 13th St,40.265781,-76.870186,0
499877,N 3rd St & Briggs St,40.265766,-76.886284,0
499880,Market St & 13th St,40.265888,-76.870193,0
499881,Market St & 13th St,40.26585,-76.870178,0
499884,Market St & 14th St,40.266079,-76.869034,0
499887,Commonwealth Ave & North St,40.266178,-76.882797,0
499889,Commonwealth Ave & North St (Finance Building),40.266178,-76.882698,0
499892,Market St & 14th St,40.266212,-76.869011,0
499897,N 63rd St opp. Clearfield St,40.266289,-76.778534,0
499903,Commonwealth Ave & North St (Keystone Building),40.266346,-76.882912,0
499909,N 3rd St & Forster St,40.266453,-76.88678,0
499910,N 3rd St & Forster St,40.266514,-76.886604,0
499914,Rudy Rd & Hale Ave,40.266628,-76.84623,0
499915,Market St & 15th St,40.26664,-76.867012,0
499917,Rupley Rd opp. Thomas Rd,40.266743,-76.918587,0
499918,Rudy Rd & Hale Ave,40.266716,-76.846237,0
499920,Market St & 16th St,40.266842,-76.866287,0
499921,N 7th St & North St,40.266972,-76.880943,0
499922,Market St & 16th St,40.266953,-76.866165,0
499924,N Front St @ PinnacleHealth Cardiovascular,40.26704,-76.911079,0
499926,Market St & 17th St,40.267292,-76.864655,0
499935,N 3rd St & Boas St,40.267365,-76.887184,0
499936,Somerset St & N 65th St,40.267387,-76.774811,0
499940,Market St & 17th St,40.267361,-76.864685,0
499948,Somerset St & N 65th St,40.267513,-76.774689,0
499950,Somerset St & N 66th St,40.267555,-76.772812,0
499953,Market St & 18th St,40.267647,-76.863365,0
499956,Rudy Rd & 29th St,40.267628,-76.842117,0
499958,Somerset St & N 66th St,40.267685,-76.772705,0
499959,Rudy Rd & Yew Pl,40.26767,-76.842628,0
499961,Market St & 18th St,40.267773,-76.863281,0
499962,N 63rd St & Somerset St,40.267838,-76.778755,0
499963,N 3rd St & Herr St,40.267952,-76.887589,0
499965,Somerset St & N 63rd St,40.26796,-76.778755,0
499966,N 3rd St & Herr St,40.267986,-76.88784,0
499969,Rutherford Square - Inbound Stop (Somerset St & N 67th St),40.267956,-76.770569,0
499970,Market St & 19th St,40.268219,-76.861282,0
499973,Rupley Rd opp. Grant Dr,40.268303,-76.91909,0
499977,Market St & 19th St,40.268333,-76.861183,0
499979,Boas St & Commonwealth Ave,40.268391,-76.884567,0
499980,N 6th St & Boas St,40.268406,-76.884407,0
499988,S 29th St & Wilson Pkwy,40.268623,-76.841492,0
499992,N 3rd St opp. Cumberland St,40.268742,-76.888161,0
499993,Market St opp. S 20th St,40.268917,-76.85907,0
499996,Wilson Pkwy & S 25th St,40.268799,-76.844055,0
499997,S 25th St opp. Wilson Pkwy,40.268867,-76.844208,0
499998,Market St & S 20th St,40.268806,-76.85923,0
499999,Wilson Pkwy & S 25th St,40.268948,-76.843994,0
1728800,Lowther Rd & Letchworth Rd,40.23465,-76.897079,0
1728801,Gettysburg Rd & 30th St,40.228287,-76.928665,0
1728802,Simpson Ferry Rd opp. Lower Allen Dr,40.226357,-76.939285,0
1728804,Wesley Dr opp. Century Dr,40.210255,-76.964317,0
1728805,Wesley Dr & Woodland St (Outbound),40.210598,-76.962059,0
500006,Hale Ave & Magnolia Rd,40.269169,-76.847664,0
1728808,S 10th St & Ayers Ave,40.237526,-76.898781,0
500009,State St & N 13th St,40.269306,-76.871628,0
500012,N 7th St & Boas St (L&I),40.269382,-76.882164,0
500013,Market St & S 21st St,40.269386,-76.857109,0
500027,Market St opp. S 21st St,40.269451,-76.857216,0
500028,State St & N 13th St,40.269432,-76.871613,0
500029,N 3rd St & Verbeke St,40.269527,-76.888756,0
500034,N 3rd St & Verbeke St,40.269661,-76.889053,0
500035,N 7th St opp. Boas St,40.269669,-76.882004,0
500036,Market St & S 22nd St,40.26981,-76.855576,0
500038,State St & N 15th St,40.269939,-76.870193,0
500039,State St & N 14th St,40.269772,-76.870766,0
500040,N 6th St & Cumberland St,40.269917,-76.885803,0
500041,N 6th St @ Ben Franklin School,40.269962,-76.885643,0
500045,Hale Ave & Midland Rd,40.270172,-76.848137,0
500047,Market St & S 23rd St,40.270271,-76.853928,0
500048,University Dr & Briarcrest Dr,40.270283,-76.674492,0
500049,University Dr & Briarcrest Dr,40.270302,-76.674179,0
500050,Market St opp. S 23rd St,40.270382,-76.853851,0
500053,State St & N 15th St,40.270527,-76.869011,0
500059,State St & N 16th St,40.270779,-76.868141,0
500060,N 3rd St & Calder St,40.270664,-76.889572,0
500062,N 3rd St & Calder St,40.270706,-76.889824,0
500063,Hale Ave & Chestnut St,40.27095,-76.848511,0
500064,State St & N 16th St,40.270901,-76.868042,0
500065,Briarcrest Dr & Centerview Ln,40.271065,-76.671661,0
500067,N 6th St & Verbeke St,40.271057,-76.886368,0
500068,N 6th St opp. Verbeke St,40.27095,-76.886208,0
500070,Briarcrest Dr & Centerview Ln,40.271095,-76.671928,0
500074,State St & N 17th St,40.271317,-76.866791,0
500075,Kline Plaza @ Rent-A-Center,40.27121,-76.843895,0
500078,Kline Plaza @ McDonald's,40.271259,-76.844238,0
500079,Market St opp. Briarcliff Rd,40.271259,-76.850792,0
500080,Market St & Bellevue Rd,40.271339,-76.850067,0
500083,Kline Plaza @ Department of Health,40.271355,-76.842697,0
500085,State St & N 17th St,40.271481,-76.866653,0
500089,N 3rd St & Reily St,40.271545,-76.890228,0
500090,Kline Plaza @ Giant,40.271549,-76.84053,0
500093,Market St & Hale Ave,40.271687,-76.848869,0
500094,N 3rd St & Reily St,40.271645,-76.890518,0
500096,Market St & Thomas St,40.271667,-76.849167,0
500099,State St & N 18th St,40.271877,-76.865402,0
500103,State St & N 18th St,40.272045,-76.865303,0
500108,Herr St & N Cameron St,40.272507,-76.876884,0
500109,N Cameron St & Herr St,40.27256,-76.877281,0
500112,N 6th St & Basin St,40.272579,-76.886307,0
500114,State St & N 19th St,40.272675,-76.863419,0
500116,N 3rd St & Harris St,40.272739,-76.891281,0
500117,N 3rd St & Harris St,40.2728,-76.891136,0
500119,State St & N 19th St,40.272842,-76.863312,0
500120,N 6th St & Reily St,40.273102,-76.886536,0
500121,Briarcrest Dr & Hillview Ln,40.273056,-76.668297,0
500122,Herr St & Dr Claude E Nichols St (opp. 12th St),40.273109,-76.875496,0
500123,Briarcrest Dr & Hillview Ln,40.273224,-76.66835,0
500125,N 7th St & Basin St (PHEAA),40.273247,-76.884712,0
500126,Herr St & N 12th St,40.273254,-76.875542,0
500127,N Cameron St & Cumberland St,40.273304,-76.87764,0
500129,N 6th St & Reily St,40.273312,-76.886833,0
500130,State St & N 20th St,40.273502,-76.861427,0
500133,S Enola Rd & Market St,40.27354,-76.916306,0
500134,State St & N 20th St,40.273651,-76.86132,0
500136,Herr St & N 13th St,40.273968,-76.873863,0
500137,N 3rd St & Hamilton St,40.274006,-76.891991,0
500139,Walnut St @ #2107,40.274071,-76.858047,0
500140,N 3rd St & Hamilton St,40.274055,-76.89222,0
500141,S Enola Rd & Market St,40.27409,-76.916992,0
500142,N Cameron St & Verbeke St,40.274231,-76.877853,0
500143,W Areba Ave @ Briarcrest Apartments,40.273693,-76.666061,0
500144,N Cameron St opp. Verbeke St,40.2743,-76.878014,0
500145,Walnut St opp. #2201,40.274426,-76.856636,0
500146,Walnut St @ #2201,40.274364,-76.856735,0
500147,Herr St opp. N 14th St,40.274364,-76.872551,0
500148,W Areba Ave @ Briarcrest Apartments,40.27422,-76.665718,0
500149,N 6th St & Harris St,40.274406,-76.887253,0
500150,N 6th St & Harris St,40.274502,-76.887451,0
500152,Herr St & N 14th St,40.274544,-76.872505,0
500154,Market Street Rd & Boas St,40.274792,-76.844528,0
500158,Walnut St & N 23rd St,40.274921,-76.855019,0
500159,Herr St & N 15th St,40.274902,-76.871262,0
500160,Market St Rd & Boas St,40.274837,-76.844193,0
500161,Herr St & N 15th St,40.275089,-76.87117,0
500162,N 23rd St & Walnut St,40.275131,-76.854874,0
500163,N 3rd St & Kelker St,40.275135,-76.893013,0
500164,Herr St & N 16th St,40.275192,-76.870293,0
500165,N 3rd St & Kelker St,40.275192,-76.892883,0
500166,Union Square @ Gabriel Brothers,40.275284,-76.824249,0
500167,Herr St & N 16th St,40.275368,-76.870201,0
500168,Union Square @ Salvation Army,40.275482,-76.82634,0
500169,N Cameron St & Calder St,40.275517,-76.878334,0
500171,N Cameron St & Calder St,40.275574,-76.878418,0
500173,Herr St & N 17th St,40.2756,-76.868835,0
500174,N 6th St & Hamilton St,40.275806,-76.887955,0
500176,Herr St & N 17th St,40.275791,-76.868713,0
500177,Walnut St opp. Forster St,40.275803,-76.8535,0
500179,N 6th St & Hamilton St,40.275841,-76.888107,0
500182,Herr St & N 18th St,40.275997,-76.867409,0
500183,W Areba Ave & Half St,40.276012,-76.663528,0
500184,Herr St & N 18th St,40.27623,-76.867172,0
500185,N 3rd St & Muench St,40.276402,-76.893738,0
500187,Walnut St & 24th St,40.276508,-76.852478,0
500188,Walnut St & 24th St,40.276436,-76.852501,0
500189,N 3rd St & Muench St,40.276443,-76.893982,0
500190,Herr St & N 19th St,40.276581,-76.865273,0
500192,Union Square @ Weis Markets,40.27663,-76.824265,0
500194,Walnut St & Boas St,40.276772,-76.851952,0
500195,Herr St opp. N 19th St,40.276772,-76.865242,0
500196,W Areba Ave & Hockersville Rd,40.276859,-76.66214,0
500197,Herr St & Arsenal Blvd,40.276978,-76.863945,0
500198,N 6th St & Kelker St,40.276993,-76.888557,0
500201,N 6th St & Kelker St,40.277103,-76.888748,0
500204,Point Mall @ Giant,40.277416,-76.816467,0
500205,S Enola Dr & 5th St,40.277477,-76.922775,0
500206,S 25th St & Walnut St,40.277515,-76.851128,0
500209,N 3rd St & Peffer St,40.277603,-76.894585,0
500210,N 3rd St & Peffer St,40.277679,-76.894852,0
500211,Herr St & N 21st St,40.277824,-76.860909,0
500212,S Enola Dr & Everheart Ln,40.277824,-76.923401,0
500213,Michigan Dr & Ontario Dr (Twin Lakes Apartments),40.277931,-76.810287,0
500216,Union Deposit Rd & Stuart Pl,40.277962,-76.840088,0
500219,Union Deposit Rd & S 32nd St,40.277992,-76.839523,0
500221,Ontario Dr & Huron Dr (Twin Lakes Apartments),40.278023,-76.808098,0
500223,Union Deposit Rd & Powers Ave,40.278107,-76.82682,0
500224,Union Deposit Rd @ Wendy's,40.278255,-76.824646,0
500226,Herr St opp. Cherry St,40.278236,-76.860008,0
500228,N 6th St & Muench St,40.278248,-76.889191,0
500231,Union Deposit Rd & Latshmere Dr,40.27832,-76.838661,0
500235,Walnut St & Banks St,40.278324,-76.849861,0
500237,Union Deposit Rd @ McDonald's,40.278419,-76.822021,0
500238,S Enola Dr & Pennsylvania Ave,40.278404,-76.92614,0
500240,N 6th St & Muench St,40.278435,-76.88942,0
500242,S Enola Dr & Creekside Dr,40.278492,-76.926476,0
500243,Union Deposit Rd & Victoria Ave,40.2785,-76.823601,0
500244,Union Deposit Rd @ Walnut Crossing Apartments,40.278576,-76.838486,0
500245,Walnut St & Canby St,40.278587,-76.849686,0
500252,Union Deposit Rd & Shield St,40.278759,-76.833076,0
500253,Point Mall @ Citizen's Bank,40.278851,-76.815865,0
500254,Edgemont Rd & Herr St,40.278893,-76.858398,0
500257,N 3rd St & Maclay St,40.278992,-76.895584,0
500259,Union Deposit Rd & Redwood St,40.279045,-76.835594,0
500260,Dauphin Plaza @ Price-Rite,40.27906,-76.827347,0
500261,N 3rd St & Maclay St,40.279091,-76.895859,0
500263,Union Deposit Rd & Redwood St,40.279205,-76.835617,0
2744873,Division St & N 4th St,40.291378,-76.899483,0
500266,Twin Lakes Apartments (Highway Stop),40.279373,-76.810211,0
500267,Walnut St & 27th St,40.279476,-76.848328,0
500268,Dauphin Plaza @ Ashley Furniture,40.279476,-76.824814,0
500269,S Enola Dr & Locust St,40.279514,-76.927498,0
500270,S Enola Dr & Locust St,40.279556,-76.927803,0
500271,N 6th St & Peffer St,40.279598,-76.889816,0
500273,Dauphin Plaza @ Big Lots,40.279606,-76.826195,0
500274,N Cameron St & Kelker St,40.279655,-76.879753,0
500275,N 6th St & Peffer St,40.279682,-76.89006,0
500278,Walnut St & 27th St,40.279728,-76.848198,0
500279,N Cameron St & Kelker St,40.279728,-76.87989,0
500280,Old Union Deposit Rd & Scenery Dr,40.279877,-76.813652,0
500282,S Enola Dr & Pine St,40.280449,-76.92868,0
500283,N 6th St & Maclay St,40.280346,-76.890244,0
500285,S Enola Dr & Pine St,40.280312,-76.928703,0
500287,Walnut St & 28th St,40.28038,-76.847115,0
500288,N 6th St & Maclay St,40.280605,-76.890518,0
500289,N 3rd St & Woodbine St,40.280609,-76.896378,0
500290,Walnut St & 28th St,40.280643,-76.847023,0
500291,N 3rd St & Woodbine St,40.280697,-76.896606,0
500292,S Enola Dr opp. Adams St,40.281067,-76.92939,0
500293,S Enola Dr & Adams St,40.281101,-76.929672,0
500294,N Cameron St & Muench St,40.28112,-76.880173,0
500295,N Cameron St opp. Budget Bakery,40.281902,-76.880661,0
500296,Avila Rd & Wagon Wheel Ct,40.281597,-76.81546,0
500297,Edgemont Rd & Wayne Ave,40.281624,-76.856834,0
500298,Edgemont Rd & Wayne Ave,40.281631,-76.857018,0
500302,Walnut St & S 30th St,40.28178,-76.845345,0
500305,Rutherford Rd & Union Deposit Rd,40.281773,-76.798225,0
500306,Four Seasons Blvd & Pond Rd (Far Side),40.282001,-76.79425,0
500307,N 6th St & Woodbine St,40.282051,-76.891144,0
500308,Walnut St & N 30th St,40.282108,-76.845169,0
500309,N 6th St & Woodbine St,40.282177,-76.891342,0
500310,Scenery Dr & Lakewood Dr,40.282204,-76.810844,0
500311,N 3rd St & Emerald St,40.282242,-76.897125,0
500312,N 3rd St & Emerald St,40.282303,-76.897369,0
500314,Edgemont Rd & Columbia Ave,40.282372,-76.856499,0
500317,W Chocolate Ave @ Days Inn,40.282524,-76.658066,0
500320,S Enola Dr & Beale Ave,40.282635,-76.931526,0
500321,N 6th St & Camp St,40.282726,-76.891464,0
500322,Londonderry Rd opp. Avila Rd,40.282688,-76.815781,0
500323,S Enola Dr & Beale Ave,40.282787,-76.931496,0
500324,N 6th St & Camp St,40.282932,-76.891739,0
500326,Walnut St & 31st St,40.282974,-76.843826,0
500328,Four Seasons Blvd & Pond Rd (Near Side),40.283028,-76.795464,0
500330,Walnut St & 31st St,40.283142,-76.843834,0
500333,N 6th St & Emerald St,40.283604,-76.89193,0
1327726,S Front St & Swatara St,40.23283,-76.8367,0
500335,Edgemont Rd & Brown St,40.283726,-76.855919,0
500336,Walnut St opp. N 32nd St,40.283733,-76.842834,0
500337,N 25th St & Brown St,40.283764,-76.853592,0
500340,N 6th St & Emerald St,40.283775,-76.892189,0
500341,Scenery Dr & Londonderry Rd,40.283833,-76.809235,0
500342,N 3rd St & Seneca St,40.283844,-76.897865,0
500343,Walnut St & N 32nd St,40.283882,-76.842896,0
500345,N 3rd St & Seneca St,40.283932,-76.898109,0
500347,W Chocolate Ave & Ridge Rd,40.283989,-76.65419,0
500348,W Chocolate Ave & Ridge Rd,40.284222,-76.654251,0
500349,N 6th St & Curtin St,40.284405,-76.892326,0
500351,N 6th St & Curtin St,40.284519,-76.892578,0
500352,Walnut St & Progress Ave,40.28455,-76.841782,0
500353,W Chocolate Ave & Linden Rd,40.284645,-76.652504,0
500355,S Enola Dr & North Ave,40.284794,-76.932281,0
500356,S Enola Dr & North Ave,40.284801,-76.932106,0
500358,Chocolate Ave & Cocoa Ave,40.28516,-76.651169,0
500359,N 6th St & Seneca St,40.285206,-76.892746,0
500360,N 25th St opp. Highland Ave,40.285294,-76.853203,0
500361,Locust Ln & N Progress Ave,40.285309,-76.843147,0
500362,Walnut St & 34th St,40.285328,-76.841042,0
500363,Locust Ln & N 28th St,40.285332,-76.848541,0
500364,Hershey Intermodal Center (Highway Stop),40.285374,-76.651176,0
500365,N 6th St & Seneca St,40.285374,-76.893021,0
500367,Locust Ln & N 32nd St,40.285427,-76.843765,0
500368,Locust Ln & N 28th St,40.285439,-76.848282,0
500369,N 3rd St & Schuylkill St,40.285473,-76.898621,0
500370,N 3rd St & Schuylkill St,40.285542,-76.898865,0
500372,Locust Ln & N 25th St,40.286057,-76.853088,0
500376,Walnut St & Shell St,40.286697,-76.83905,0
500378,N Cameron St @ Farm Show,40.285999,-76.88166,0
500379,N 6th St & Schuylkill St,40.286804,-76.893585,0
500380,Walnut St opp. Shell St,40.286873,-76.839073,0
500381,N 3rd St & Polyclinic Ave,40.286945,-76.899284,0
500382,N Cameron St opp. Farm Show,40.286983,-76.881607,0
500383,N 6th St & Schuylkill St,40.287006,-76.893875,0
500384,N 3rd St & Radnor St,40.28717,-76.899628,0
500385,S Enola Dr & Wertzville Rd,40.287346,-76.932983,0
500386,S Enola Dr opp. Wertzville Rd,40.287357,-76.932808,0
500387,Walnut St & Fox St,40.287872,-76.837433,0
500391,Walnut St & N 36th St,40.288105,-76.837502,0
500392,N 6th St & Radnor St,40.288414,-76.89415,0
500393,S Enola Dr opp. Cassatt St,40.288456,-76.933098,0
500394,S Enola Dr & Cassatt St,40.288517,-76.933281,0
500395,N Progress Ave & N 34th St,40.28857,-76.842728,0
500397,N 6th St & Radnor St,40.288658,-76.894363,0
500398,N 3rd St & Wiconisco St,40.288689,-76.900108,0
500399,N Progress Ave opp. N 34th St,40.288712,-76.84288,0
500400,N 3rd St & Wiconisco St,40.288788,-76.900375,0
500402,Walnut St opp. Fishburn St,40.288845,-76.836487,0
500405,Enola Dr & Cumberland Rd,40.289673,-76.933708,0
500406,S Enola Dr & Cumberland St,40.289738,-76.933548,0
500407,Walnut St & Linn St,40.289791,-76.834747,0
500409,N Progress Ave @ The Pines Apartments (opp. Brookfield Rd),40.289803,-76.842773,0
500410,N 6th St & Geary Ave,40.289848,-76.894508,0
500412,Park Ave & E Derry Rd,40.290016,-76.652542,0
500413,N 6th St & Wiconisco St,40.290131,-76.894714,0
500418,Walnut St & Penrose St,40.290314,-76.833954,0
500419,N 3rd St & Shamokin St,40.290314,-76.900917,0
500420,Walnut St & N 38th St,40.290386,-76.834259,0
500421,Shamokin St & N 3rd St,40.290409,-76.901054,0
500423,Division St & N 2nd St,40.291065,-76.904282,0
500424,Division St & N 4th St,40.29129,-76.899574,0
500426,Division St & Reel St,40.291412,-76.897339,0
500429,N 6th St & Division St,40.29142,-76.894943,0
500430,Division St & N 6th St,40.291485,-76.895134,0
500431,N Enola Dr & W Perry St,40.291496,-76.934418,0
500433,Division St & Jefferson St,40.291584,-76.894035,0
500434,N Enola Dr & W Perry St,40.291531,-76.934265,0
500435,Walnut St opp. Centerfield Rd,40.29158,-76.832153,0
500437,N 6th St & Division St,40.291695,-76.895187,0
500438,Walnut St & Cloverfield Rd,40.291737,-76.832298,0
500439,Uptown Plaza @ McDonald's,40.291916,-76.892929,0
500442,N Progress Ave & Cloverfield Rd,40.292225,-76.843262,0
500445,N 2nd St & Manor St,40.292358,-76.904175,0
500446,Walnut St & 39th St,40.292408,-76.830894,0
500448,N 2nd St & Manor St,40.292526,-76.90432,0
500449,Walnut St & 39th St,40.292671,-76.830963,0
500450,N 6th St & Woodland St,40.293125,-76.895294,0
500452,Park Ave & Northeast Dr,40.293324,-76.652245,0
500455,Uptown Plaza,40.293526,-76.893196,0
500457,N Enola Dr & Dauphin St,40.293541,-76.934174,0
500458,N Enola Dr & Dauphin St,40.293575,-76.933983,0
500459,N Progress Ave & Trinity Rd,40.293892,-76.843796,0
500460,HACC Dr opp. Credit Union Pl (PSECU),40.293858,-76.884621,0
500461,Walnut St & Sterling Aly,40.293499,-76.829834,0
500462,Jonestown Rd & Franklin St,40.29414,-76.8284,0
500466,N 2nd St @ Dixon University,40.294445,-76.903923,0
500467,N 2nd St @ Dixon University,40.294739,-76.904007,0
500470,Graham St & Hoffman St,40.295021,-76.895828,0
500471,N 6th St & Graham St,40.295097,-76.895767,0
500472,Graham St & N 5th St,40.295254,-76.89743,0
500473,N Enola Dr @ Cemetery Entrance,40.295269,-76.934853,0
500474,N Enola Dr opp. Cemetery Entrance,40.29528,-76.934662,0
500475,Graham St & N 4th St,40.295345,-76.898636,0
500477,N 36th St opp. Brookside Dr,40.295422,-76.838799,0
500478,Graham St & N 3rd St,40.295437,-76.899666,0
500479,Jonestown Rd & Madison St,40.295502,-76.826935,0
500480,N 2nd St & Graham St,40.295612,-76.903732,0
500481,Jonestown Rd & Interstate 83,40.295715,-76.82634,0
500482,N 2nd St & Graham St,40.295788,-76.903831,0
500483,N Enola Dr & Columbia Rd,40.295982,-76.934906,0
500485,E Columbia Rd & Beaver Ave,40.296604,-76.932365,0
500487,N Enola Dr & Shady Ln,40.296722,-76.935226,0
500489,N 2nd St & Edward St,40.296963,-76.903236,0
500490,N 3rd St & Edward St,40.296982,-76.899811,0
500492,N 6th St & Angenese St,40.297054,-76.896149,0
500493,N Progress Ave & Andrea Ave,40.297073,-76.845909,0
500495,N 2nd St & Edward St,40.297138,-76.903427,0
500496,E Shady Ln & Beaver Ave,40.297462,-76.93277,0
500497,E Shady Ln & Beaver Ave,40.297474,-76.93277,0
500498,Shady Lane Olympic Skating Park & Ride Lot,40.297874,-76.931427,0
500501,E Shady Ln & N Enola Rd,40.297928,-76.928841,0
500502,N 3rd St & Lewis St,40.29834,-76.899673,0
500503,N 2nd St & Lewis St,40.298351,-76.90274,0
500504,N 2nd St & Lewis St,40.298492,-76.902939,0
500505,N Enola Dr opp. East Pennsboro High School,40.298607,-76.936928,0
500506,N 6th St & Vaughn St,40.299271,-76.895973,0
500508,N Enola Dr & Bungalow Rd,40.299553,-76.937904,0
500509,Vaughn St & N 4th St,40.299675,-76.897881,0
500510,Vaughn St & N 3rd St,40.299786,-76.899338,0
500511,N 2nd St & Vaughn St,40.299892,-76.902176,0
500512,N 2nd St & Vaughn St,40.300037,-76.902351,0
500513,Jonestown Rd opp. Berryhill Rd,40.300316,-76.81768,0
500515,N Enola Dr & Louis Ln,40.300133,-76.938766,0
500516,Louis Ln opp. Henry Rd,40.300858,-76.936111,0
500518,Jonestown Rd & Miller Rd,40.300877,-76.815575,0
500519,Stonebridge Apartments (Colonial Rd & Williamsburg Dr),40.300991,-76.821014,0
500520,Jonestown Rd opp. Miller Rd,40.301193,-76.815529,0
500521,Louis Ln & Winter Ln,40.30159,-76.934242,0
500522,Jonestown Rd & Care St,40.301918,-76.813637,0
500523,Jonestown Rd & Edwin Ave,40.301865,-76.813225,0
500524,N 2nd St & Bergner St,40.302101,-76.901428,0
500526,N 2nd St & Bergner St,40.302277,-76.901619,0
500529,Boscov's (Colonial Park Mall),40.302662,-76.820137,0
500532,Louis Ln & Autumn Ln,40.302753,-76.933289,0
500533,Jonestown Rd & Prince St,40.302925,-76.810715,0
500534,Jonestown Rd & N Houcks Rd,40.303207,-76.810768,0
500535,College Hill Road & Raymond Rd,40.303471,-76.939697,0
500541,N 2nd St & Montrose St,40.303944,-76.90094,0
500543,College Hill Rd & B St,40.304146,-76.935005,0
500545,Brindle Dr @ Comcast,40.303711,-76.839897,0
500546,Jonestown Rd & Earl Ave (Liberty Square),40.304695,-76.807449,0
500547,Jonestown Rd & Horton St,40.304787,-76.807724,0
500548,N Progress Ave @ Nationwide,40.305225,-76.849777,0
500552,Jonestown Rd & Devonshire Rd,40.306763,-76.805611,0
500554,Estherton Ave & N 6th St,40.307873,-76.894669,0
500555,N 6th St & Estherton Ave,40.307934,-76.894623,0
500556,Estherton Ave & N 4th St,40.308029,-76.895821,0
500557,N Progress Ave & Kohn Rd,40.308086,-76.850182,0
500558,Estherton Ave & N 4th St,40.308117,-76.895584,0
500560,Estherton Ave & N 3rd St,40.308331,-76.896782,0
500561,Jonestown Rd & Parkchester Rd,40.308823,-76.803391,0
500562,Colonial Commons @ Hallmark,40.310478,-76.803474,0
500564,N 6th St & Heister Rd,40.311077,-76.894585,0
500565,N 6th St & Heister Rd,40.311043,-76.894409,0
500566,Colonial Commons @ Joanns,40.31155,-76.805702,0
500568,N 6th St & Greenwalt Ln,40.313217,-76.894646,0
500569,N 6th St & Greenwalt Ln,40.313385,-76.894852,0
500570,Jonestown Rd @ Hoffman Ford,40.314121,-76.798691,0
500571,N 6th St & Brook St,40.315357,-76.895035,0
500572,N 6th St opp. Brook St,40.315414,-76.895164,0
500573,Jonestown Rd & Lockwillow Ave,40.315971,-76.796875,0
500574,N Progress Ave & Vartan Wy,40.316334,-76.855972,0
500575,N Progress Ave & Vartan Way,40.316498,-76.856323,0
500579,Jonestown Rd & Johnson St,40.316883,-76.795364,0
500581,Jonestown Rd & Peach St,40.31752,-76.793777,0
500582,Jonestown Rd & Umberger St,40.318115,-76.792023,0
500583,N Progress Ave @ Golden Living Center,40.318474,-76.856834,0
500584,N Progress Ave @ Golden Living Center,40.318867,-76.857071,0
500585,Jonestown Rd opp. S Mountain Rd,40.319019,-76.788033,0
500589,N 6th St opp. Houser Rd,40.319523,-76.895615,0
500591,Lucknow Rd & N 2nd St,40.322105,-76.897659,0
500592,Lucknow Rd & N 6th St,40.322151,-76.895714,0
500593,N 6th St & Lucknow Rd,40.322117,-76.895813,0
500594,N Mountain Rd opp. Ridgeview Dr,40.324177,-76.790222,0
500595,N 2nd St & Linglestown Rd,40.324409,-76.897842,0
500597,N 6th St & Linglestown Rd,40.324928,-76.896088,0
500598,N Mountain Rd & Blue Bird Ave,40.328793,-76.792244,0
500600,Blue Mountain Commons @ Giant,40.331005,-76.862968,0
500601,N Mountain Rd & Blue Stone Ave,40.331547,-76.791489,0
500603,N Mountain Rd opp. Blue Ridge Ave,40.333744,-76.791,0
500604,Balthaser St & Pine St,40.334969,-76.789268,0
500605,Balthaser St & Locust St,40.337433,-76.788223,0
500606,Balthaser St & Nassau Rd,40.339394,-76.787422,0
500607,Balthaser St & Jerome Blvd,40.341133,-76.786629,0
500608,Balthaser St & Collington Ct,40.343189,-76.786476,0
500609,Linglestown Rd & N Mountain Rd,40.343475,-76.791878,0
500610,Balthaser St & Linglestown Rd,40.344227,-76.786591,0
500612,Dauphin Park & Ride Lot,40.370651,-76.943604,0
500614,Clarks Ferry Park & Ride Lot (Southbound),40.395966,-77.008621,0
500616,Rte 225 opp. McDonald's (Halifax),40.454727,-76.926445,0
500617,Rte 225 @ McDonald's (Halifax),40.454845,-76.926224,0
500618,Halifax National Bank (Market St & 3rd St),40.46777,-76.931259,0
500619,Halifax National Bank (Market St & 3rd St),40.467804,-76.931282,0
500620,Willits Footwear (N 2nd St opp. Division St),40.470592,-76.93219,0
500621,Willits Footwear (N 2nd St opp. Division St),40.47039,-76.932236,0
500622,Doughboys Pizzeria (Millersburg),40.53368,-76.963402,0
500623,Doughboys Pizzeria (Millersburg),40.533703,-76.963379,0
500624,Millersburger Hotel (Millersburg),40.538681,-76.961151,0
500625,Susquehanna Bank (Millersburg),40.538902,-76.960663,0
500626,Mid-Penn Bank (Millersburg),40.539589,-76.958801,0
500627,Mid-Penn Bank (Millersburg),40.539768,-76.957275,0
500628,Elizabethville Square (Rte 209 & Market),40.54884,-76.811859,0
500629,Elizabethville Square (Rte 209 & Market),40.549015,-76.811646,0
500630,Elizabethville Walmart Park & Ride Lot,40.557129,-76.790558,0
1343346,College Hill Rd & B St,40.304188,-76.9356,0
2811467,Carlisle Pike @ HomeGoods / Marshalls (HS),40.240986,-76.986465,0
878178,College Hill Rd & N Enola Dr,40.302349,-76.941544,0
1328749,N 6th St & Maclay St,40.280441,-76.890503,0
927414,Westport Dr Cul-de-Sac,40.20546,-76.946609,0
927415,Wesley Dr opp. Woodland St,40.210709,-76.962181,0
927416,Wesley Dr & Century Dr,40.210434,-76.964348,0
927417,Royal Dr & Lancaster Blvd,40.212074,-76.975761,0
927418,W Main St & Rupp Ave,40.221909,-76.959763,0
927429,Simpson Ferry Rd & Lower Allen Dr,40.226376,-76.937973,0
927430,Gettysburg Rd opp. 29th St,40.228214,-76.927078,0
927431,Lowther Rd & Manchester Rd,40.23251,-76.900055,0
927432,Lowther Rd & Norman Rd,40.233727,-76.898201,0
927441,Hummel Ave & S 3rd St,40.244659,-76.891953,0
1728803,Lancaster Blvd opp. HealthSouth,40.210873,-76.974823,0
3245791,Forster St @ PA Dept of Labor,40.268036,-76.882767,0
1728806,Louise Dr opp. Scott St,40.199749,-76.963539,0
1328946,Bon-Ton (Camp Hill),40.224281,-76.936096,0
1328965,Main St opp. Market St (Shiremanstown),40.223179,-76.954803,0
1025972,W Simpson St @ NAPA Store,40.209106,-77.020737,0
1025973,E Trindle Rd @ Mechanicsburg NSA,40.217224,-76.992538,0
1025977,E Trindle Rd & June Dr,40.235882,-76.94178,0
1025981,Market St & S 7th St (Lemoyne),40.244484,-76.900017,0
1025987,Rutter's (Mechanicsburg),40.209801,-77.022926,0
1468447,Hershey Intermodal Center,40.286461,-76.652367,0
526452,E Main St @ Mid-Town Plaza (Highway Stop),40.201126,-76.722603,0
526461,2nd St & Hammaker St,40.205837,-76.782394,0
2959607,Market St & Aberdeen St (Bus Lane),40.262535,-76.879204,0
895372,Ross Ave & Radesky St,40.224026,-76.858009,0
3362694,Union Deposit Rd opp. Meadowview Dr,40.281067,-76.799843,0
1342557,PinnacleHealth - West Shore Hospital,40.283779,-76.973335,0
917939,Bridge St & 3rd St,40.226322,-76.864349,0
518717,Hale Ave & Rudy Rd,40.267193,-76.846664,0
1113192,N 17th St & State St,40.271328,-76.866692,0
1113193,Herr St & N Cameron St,40.272316,-76.877716,0
1113194,N 6th St & Maclay St,40.280777,-76.890503,0
1113195,N 6th St & Division St,40.291504,-76.89502,0
1113196,N 3rd St & Maclay St,40.278954,-76.895691,0
1043083,Carlisle Pike opp. Gateway Dr,40.238605,-76.979012,0
1043084,Carlisle Pike opp. HomeGoods / Marshalls (HS),40.241524,-76.987099,0
1043085,Carlisle Pike @ Silver Spring Square,40.246788,-77.008072,0
1043086,Carlisle Pike @ #6616 (Hogestown),40.244606,-77.037094,0
1043087,Carlisle Pike @ New Kingston (Farmers St),40.235683,-77.077835,0
1043088,Harrisburg Pike opp. Giant Food Stores Admin Building,40.226997,-77.152359,0
1043089,Harrisburg Pike opp. West Pointe Dr,40.219353,-77.166183,0
1043090,N Hanover St opp. U.S. Army War College,40.212498,-77.178802,0
1043091,N Hanover St & North St,40.204735,-77.188728,0
2960020,Chewy Warehouse (Mechanicsburg),40.228165,-77.071106,0
1113198,Arnold Logistics,40.215794,-77.018578,0
1043094,N Hanover St & Louther St,40.20322,-77.188942,0
1043095,W Pomfret & S Pitt St,40.20015,-77.191612,0
1043096,S West St & W Pomfret St,40.20034,-77.194,0
1113199,Hampden Industrial,40.23003,-76.949753,0
1343943,Christian St & Mulberry St,40.262882,-76.870178,0
1329836,16th St & Brandt Ave,40.232506,-76.884666,0
887495,Locust Ln & Glenside Dr,40.28619,-76.852966,0
666314,S 19th St & Brookwood St,40.25964,-76.85714,0
666315,S 19th St & Hanover St,40.250828,-76.852913,0
666316,S 19th St & Caledonia St,40.249866,-76.852463,0
666319,S 19th St & Watson St,40.240864,-76.843246,0
666320,S 2nd St & Locust St,40.235054,-76.839096,0
666322,N Harrisburg St & Lindenwood,40.24332,-76.820595,0
887678,Clarks Ferry Park & Ride Lot (Northbound),40.395771,-77.008301,0
510912,DGS Complex - Azalea Dr @ Bldg #17,40.283047,-76.875687,0
666604,N Harrisburg St opp. Lindenwood,40.243362,-76.820915,0
666606,Mohn St @ #663,40.234631,-76.827202,0
666608,Hoy Towers,40.23172,-76.830566,0
666609,N Harrisburg St opp. Adams St,40.23917,-76.840202,0
666610,S 19th St & Paxton St,40.254704,-76.854691,0
1289270,Sycamore St & S 19th St,40.253895,-76.8545,0
1289271,Sycamore St & S 19th St,40.253876,-76.854256,0
3247194,Colonial Park Mall - Park & Ride Lot,40.302383,-76.820992,0
1054139,N Hanover St @ #645,40.209492,-77.183762,0
511140,Hanover St - Hall Manor opp. Bldg #33,40.248749,-76.855576,0
511141,Hanover St - Hall Manor @ Bldg #43,40.248569,-76.860107,0
1054140,N Hanover St @ U.S. Army War College,40.21217,-77.179123,0
929133,Lowther Rd & Commercial Dr,40.231724,-76.901382,0
929134,Carlisle Rd & Chelsea Rd,40.231285,-76.905434,0
929141,Simpson Ferry Rd & Linda Ln,40.227276,-76.934395,0
929145,Upper Allen Business Park,40.198883,-76.980995,0
929146,Westport Dr opp. PHEAA,40.205502,-76.951141,0
511375,Mechanicsburg NSA - M St & 3rd Ave (Bldg #212),40.226913,-76.981697,0
1682686,N 3rd St & Estherton Ave,40.308235,-76.897102,0
2869177,New Cumberland DDRE - 3rd St & N Ave,40.210163,-76.840714,0
500331,Londonderry Rd & King Russ Rd,40.283302,-76.812874,0
1327728,N 6th St & Maclay St,40.280571,-76.890205,0
3436202,E Main St & Hanna St,40.265598,-76.702324,0
2971591,Fry Communications (Mechanicsburg),40.231781,-77.074028,0
3436204,Walton Av & Townsend Dr,40.266754,-76.695641,0
3436205,Walton Av & Alison Dr,40.267235,-76.694298,0
3436206,Walton Av & E Main St,40.26865,-76.690948,0
3436214,Walton Av & E Main St,40.2687,-76.691353,0
3436215,Walton Av & Alison Dr,40.267357,-76.694183,0
3436216,Walton Av & Townsend Dr,40.26685,-76.695724,0
3436226,E Main St & Laurel Av,40.265808,-76.699715,0
3436227,E Main St & Hanna St,40.265675,-76.70211,0
1896206,Penn State Hershey Medical Center,40.265457,-76.673775,0
3362610,Rutherford Rd opp. Londonderry Rd,40.285412,-76.803078,0
3362639,Rutherford Rd & Garden Ln,40.290329,-76.80629,0
892216,S 2nd St & Chambers St,40.224598,-76.826225,0
892217,Chambers St & Cumbler St,40.224655,-76.825676,0
892218,Chambers St & Hickory St,40.22496,-76.824303,0
892219,Chambers St @ #470,40.22699,-76.822289,0
2584422,Amazon (2 Ames Dr),40.166786,-77.238731,0
892220,Chambers St @ #582,40.228794,-76.820625,0
892222,Main St & Locust St,40.231651,-76.818794,0
839557,Eisenhower Blvd opp. Clover Ln,40.244499,-76.809097,0
839558,Chambers Hill Rd & N Harrisburg St,40.247169,-76.825539,0
892225,Main St & Spring St,40.236927,-76.816154,0
892226,Main St & Summit St,40.241512,-76.814339,0
892227,Hanshue St & Pieffers Ln,40.241989,-76.815308,0
855961,N Progress Ave & Ridgeway Rd,40.296257,-76.845528,0
1347540,Sycamore St & S 17th St,40.252846,-76.858025,0
1347541,S 17th St & Paxton St,40.255001,-76.858864,0
1347542,S 17th St & Derry St,40.262077,-76.862228,0
1347543,Hamilton Health Center (Inbound  opp. Bldg),40.265575,-76.863899,0
1347565,Hamilton Health Center (Outbound),40.265541,-76.863998,0
1347566,S 17th St & Paxton St,40.255249,-76.859055,0
872483,Fresh Express Farms,40.262596,-76.757195,0
1342776,Salt Rd & Shady Ln,40.295017,-76.949165,0
1342777,Pennsboro Commons,40.289452,-76.946831,0
1342778,Wertzville Rd opp. CVS,40.287594,-76.947876,0
839905,S 40th & Tecport Dr (Southbound),40.251587,-76.816879,0
839906,Tecport Dr @ U-Gro Learning Center,40.251801,-76.821556,0
839907,Paxton St @ Park Run Apartments,40.254662,-76.833076,0
1347893,Hanover & Poplar (Northbound),40.262676,-76.707558,0
1347894,E Main St & Water St (Hummelstown) - Outbound,40.265415,-76.706078,0
3002726,S 17th St & Holly St,40.263451,-76.862862,0
3002727,S 17th St & Market St,40.267193,-76.864639,0
3002728,N 17th St & Elm St,40.270439,-76.866196,0
843686,N 7th St & Kelker St,40.277653,-76.887115,0
1667473,Logistics Dr opp. Shearer Dr,40.189888,-77.235245,0
1307192,Linden Terrace Apartments,40.26815,-76.892181,0
1307193,Presbyterian Apartments,40.262371,-76.88633,0
1307194,B'Nai B'Rith Apartments,40.259556,-76.87957,0
1307195,Morrison Towers,40.260681,-76.878555,0
1348170,W Chocolate Ave @ Rite Aid,40.282887,-76.657661,0
889419,Capital Blue Cross,40.29953,-76.849373,0
1348172,E Main St & Water St (Hummelstown) - Inbound,40.265484,-76.705719,0
1348173,Hanover & Poplar (Southbound),40.262932,-76.70771,0
1348176,Briarcrest Dr & Centerview Ln,40.271107,-76.67189,0
3371618,Brackbill Blvd @ #6350 (TelePlan),40.229843,-77.001472,0
3371621,C.I.T. (Shelter Stop),40.226864,-77.006706,0
1583210,E Main St & S Chestnut St,40.215069,-77.001534,0
660094,Jonestown Rd & Franklin St,40.294674,-76.828178,0
1307304,Bistline Apartments,40.253403,-76.839058,0
1343342,Giant Food Stores (Marketplace Way - Enola),40.293442,-76.976143,0
930556,Paxton Towne Centre @ Target,40.308136,-76.796394,0
1343343,Wertzville Rd @ CVS,40.287544,-76.947601,0
1307397,Morrison Towers,40.260326,-76.878342,0
1307398,B'Nai B'Rith Apartments,40.259548,-76.87841,0
499161,Market St & S 27th St (Lemoyne),40.240273,-76.928253,0
1343345,Salt Rd & Shady Ln,40.294563,-76.949043,0
1270587,Lancaster Dr & Cumberland Dr (Shippensburg),40.063515,-77.521973,0
2767544,Allen Rd opp. Amazon,40.176704,-77.234344,0
3257215,Tecport Dr @ Capital Blue,40.251694,-76.821823,0
1113197,N 17th St & State St,40.271446,-76.86676,0
1348529,S 29th St & Rudy Rd,40.267918,-76.841423,0
1348530,Hale Ave & Harris Terr,40.267105,-76.846527,0
1348531,Hale Ave & Magnolia Rd,40.268944,-76.847435,0
2479064,Walnut St @ SSA Office,40.264194,-76.879814,0
926550,Bridge St & 16th St,40.236607,-76.879082,0
931178,Flank Dr @ #6345 (Outbound),40.326756,-76.778671,0
931179,N Mountain Rd & Blue Bird Ave,40.329018,-76.792244,0
930903,Colonial Commons (Highway Stop) - Outbound,40.310963,-76.801506,0
926568,Bridge St & 11th St,40.23225,-76.873238,0
3003606,N 17th St & Walnut St,40.270157,-76.866196,0
3003607,N 17th St & Market St,40.267365,-76.864838,0
3003608,S 17th St & Vernon St,40.263634,-76.863075,0
3249381,Paxton Towne Centre @ Weis,40.309639,-76.79641,0
3249458,Paxton Towne Centre @ BAM! Bookstore,40.310905,-76.799042,0
521546,N 3rd St & Boas St,40.267464,-76.887405,0
521560,Locust Ln opp. Prince St,40.293213,-76.805649,0
521561,Locust Ln & Oakmont Rd,40.293358,-76.804138,0
521562,Locust Ln opp. Maplewood Dr,40.293308,-76.800819,0
521563,Locust Ln opp. Hollywood Dr,40.293159,-76.799339,0
521564,Locust Ln & Karen Dr,40.292767,-76.79586,0
521565,Locust Ln & Embassy Dr,40.292404,-76.790146,0
521566,Locust Ln & Nittany Ln,40.29298,-76.787735,0
521567,Locust Ln & Dauphin Co. Technical School,40.294304,-76.781898,0
521568,Springford Dr @ #6160,40.2967,-76.771599,0
521569,Springford Dr @ #6130,40.296967,-76.77269,0
521570,Locust Ln opp. Dauphin Co. Technical School,40.294361,-76.781868,0
521571,Locust Ln & Haney Dr,40.293385,-76.785767,0
521572,Locust Ln opp. Nittany Ln,40.293041,-76.787636,0
521573,Locust Ln & Ford Ave,40.292179,-76.791573,0
521574,Locust Ln opp. Karen Dr,40.292801,-76.795761,0
521575,Locust Ln & Hollywood Dr,40.29319,-76.799248,0
521576,Locust Ln & Maplewood Dr,40.293346,-76.800751,0
521577,Locust Ln opp. Oakmont Rd,40.293404,-76.804062,0
521578,Locust Ln & Prince St,40.293262,-76.805611,0
521617,Derry St @ Holy Cross Cemetery,40.257553,-76.815613,0
521622,Derry St opp. Dixon's Pizza,40.259472,-76.795433,0
521623,Derry St opp. N 62nd St,40.263741,-76.780655,0
521624,Somerset St & N 64th St,40.267624,-76.776451,0
521626,Somerset St & N 69th St,40.267918,-76.76857,0
521628,Rutherford Park Townhouses - 337 Brokas Dr,40.269527,-76.757019,0
521629,Walmart (Grayson Rd),40.261387,-76.771622,0
521630,Weis Market (Mushroom Hill Rd),40.260906,-76.776573,0
521636,Somerset St opp. N 64th St,40.26767,-76.776321,0
521639,Derry St & Lincoln Ave,40.263157,-76.788658,0
521640,Derry St @ Brightwood Career Institute,40.262173,-76.791237,0
521641,Derry St & Lawnford Wy,40.261509,-76.79229,0
521643,Derry St & Hebron Ln,40.259079,-76.797455,0
521644,Derry St & 50th St,40.2589,-76.799782,0
521645,Derry St & 49th St,40.258724,-76.801804,0
521646,Derry St & 48th St,40.258533,-76.803894,0
521647,Derry St & 47th St,40.258419,-76.804985,0
521648,Derry St & 46th St,40.258385,-76.806046,0
521649,Derry St & Swan St,40.258926,-76.830109,0
521653,N Cameron St & Reily Rd,40.276474,-76.878654,0
521654,HACC - North Hall Gate #4,40.294346,-76.887947,0
521655,HACC - Parking Lot P,40.294384,-76.885925,0
1054136,S West St & W Pomfret St,40.200214,-77.194031,0
1054137,W Pomfret & S Pitt St,40.2001,-77.191856,0
1054138,N Hanover St & Louther St,40.202335,-77.188904,0
1054143,Harrisburg Pike @ Giant Food Stores Admin Building,40.22646,-77.152725,0
1054144,Carlisle Pike @ Country Club Rd,40.234642,-77.131607,0
1054145,Carlisle Pike @ New Kingston (Farmers St),40.235394,-77.078377,0
1054146,Carlisle Pike @ #6621 (Hogestown),40.244072,-77.036369,0
1054147,Carlisle Pike & Wingate Dr,40.243492,-76.993294,0
1054149,Market St & 36th St (Members 1st Bank) (Lemoyne),40.239067,-76.942978,0
1021391,Shannon Dr & Allentown Blvd,40.326191,-76.774841,0
1021409,Flank Dr @ #6345 (Inbound),40.326672,-76.778557,0
3405282,N 21st St & Ridge Rd,40.252136,-76.923698,0
1586661,S 19th and Gibson Blvd (Near Side),40.243229,-76.848259,0
3446253,AMES (465 Railroad Ave),40.226192,-76.958145,0
2635381,Tanger Outlets - Hershey,40.296272,-76.645721,0
661122,Point Mall @ Burlington Coat Factory,40.276272,-76.815247,0
3407521,Poplar Church Rd past House Ave,40.258053,-76.919182,0
1292183,Hummelstown Park & Ride Lot,40.26675,-76.708687,0
2971596,WEG Warehouse (Mechanicsburg),40.2318,-77.073845,0
3436203,E Main St & Laurel Av,40.265739,-76.699524,0
653411,Colonial Commons @ OfficeMax,40.312431,-76.80381,0
874614,N 32nd St & Walnut St,40.241096,-76.935127,0
1824924,Broad Street Market,40.269974,-76.887543,0
3405165,Grandview Ave @ #205,40.257763,-76.92205,0
653697,N Mountain Rd @ Karns Grocery Store,40.320419,-76.788429,0
653698,Balthaser St & Catherine St,40.336151,-76.788826,0
653699,Linglestown Rd & Hickory Aly,40.343807,-76.789787,0
653700,Linglestown Rd opp. Hainles Aly,40.343601,-76.79097,0
653703,Riverfront Office Complex,40.247562,-76.868271,0
1022430,Colonial Commons (Highway Stop) - Inbound,40.311169,-76.801743,0
3142743,Amazon (675 Allen Rd) - Main Entrance,40.176296,-77.231659,0
1335045,PA State Police,40.297981,-76.859444,0
1335046,PA Game Commission,40.295086,-76.85482,0
1112648,13th St & Market St,40.265766,-76.870026,0
1112649,Ross Distribution Center,40.196659,-77.241074,0
1342054,Spring Creek Health Care Center,40.254189,-76.839745,0
891499,Harrisburg International Airport,40.196693,-76.756348,0
891507,Penn State Harrisburg - Stop A,40.203762,-76.742775,0
891508,Penn State Harrisburg - Stop B,40.2052,-76.743347,0
891509,Penn State Harrisburg - Stop C,40.2062,-76.741882,0
891510,Penn State Harrisburg - Stop D,40.205112,-76.740738,0
891511,Penn State - Olmsted Dr opp. Wharton Ave,40.203785,-76.740105,0
891512,Penn State - Olmsted Dr & O St,40.202705,-76.740105,0
891523,Pennswood Apartments @ Manayunk Rd,40.2896,-76.796127,0
2767527,UPS (1 Ames Drive) - Highway Stop,40.171219,-77.235535,0
514822,Susquehanna View Apartments,40.254475,-76.919548,0
3407667,Grandview Ave @ #200,40.257671,-76.921761,0
1031003,E Trindle Rd @ #5025,40.22488,-76.973106,0
1031004,E Trindle Rd @ Mechanicsburg NSA,40.217434,-76.992485,0
1522665,Rutherford Square - Outbound Stop (Somerset St & N 67th St),40.267838,-76.770462,0
1342458,Walmart (Capital City Mall),40.224159,-76.928612,0
654358,N Mountain Rd & Larue St,40.341389,-76.791786,0
654359,N Mountain Rd & Catherine St,40.336491,-76.791336,0
2587673,Ames True Temper (Highway Stop),40.175072,-77.234413,0
498716,Shippensburg Walmart Park & Ride Lot (I-81 Exit 29),40.060543,-77.497292,0
654365,N Mountain Rd opp. Blue Ridge Ave,40.333687,-76.791138,0
654366,N Mountain Rd opp. Blue Stone Ave (Amelia's Park & Ride Lot),40.331543,-76.791695,0
498721,Newville Park & Ride (I-81 Exit 37),40.129337,-77.351471,0
498724,Walmart (Carlisle Commons),40.189354,-77.195557,0
498730,Carlisle Commons Park & Ride Lot,40.190479,-77.196114,0
498731,Winding Hill Park & Ride Lot,40.191833,-76.975769,0
498733,Ann St & S Union St,40.192562,-76.732384,0
498734,S Union St & Ann St,40.192768,-76.732079,0
498735,Ann St & S Catherine St,40.19305,-76.733536,0
498736,Ann St & S Catherine St,40.19305,-76.733955,0
498737,Ann St & S Wood St,40.193546,-76.735573,0
498738,Ann St & S Wood St,40.193584,-76.73526,0
498739,S West St & W Ridge St,40.19381,-77.195099,0
498740,S Union St opp. Brown St,40.194042,-76.73156,0
498741,Ann St & Lawrence St,40.194061,-76.737244,0
498742,Ann St & S Lawrence St,40.194092,-76.736916,0
498743,Adelia St & Pineford Dr,40.194111,-76.721687,0
498744,S Union St & Brown St,40.194126,-76.731377,0
498745,Village of Pineford Apartments,40.194462,-76.720474,0
498746,Ann St & Grant St,40.194714,-76.738579,0
498747,Grant St & Ann St,40.194759,-76.738953,0
498748,Union St & Emaus St,40.194923,-76.731133,0
498749,S West St & W Willow St,40.195129,-77.194695,0
498750,Union St & Emaus St,40.195175,-76.731209,0
498751,Adelia St & Linden St,40.195808,-76.721581,0
498752,N Union St opp. N Spring St,40.196114,-76.730743,0
498753,N Union St & N Spring St,40.196323,-76.73082,0
498754,Pineford Dr @ Hemlock Hall,40.196442,-76.717766,0
498755,W Harrisburg Pike opp. First St,40.196548,-76.74128,0
498756,W Harrisburg Pike & First St,40.196808,-76.742149,0
498757,S West St & Walnut St,40.196884,-77.194473,0
498758,Adelia St & Columbia Dr,40.197407,-76.721458,0
498759,W Harrisburg Pike opp. Middletown Home,40.197624,-76.748535,0
498760,W Harrisburg Pike @ Middletown Home,40.197826,-76.748695,0
498761,W Harrisburg Pike opp. Rosedale Ave,40.19817,-76.752213,0
498762,W Harrisburg Pike & Rosedale Ave,40.1982,-76.750725,0
498763,N Union St & Water St,40.198524,-76.730392,0
498764,W Harrisburg Pike opp. Linden Centre,40.198673,-76.755836,0
498765,Pineford Dr & Hoffer St,40.1987,-76.719994,0
498766,Adelia St & Conewago St,40.198807,-76.721367,0
498767,N Union St & Water St,40.198849,-76.730751,0
498768,W Harrisburg Pike @ Linden Centre,40.199127,-76.757309,0
498769,N Union St & Main St,40.199383,-76.730934,0
498770,N Union St & Main St,40.199413,-76.731094,0
498772,W Harrisburg Pike opp. Tioga Ave,40.199829,-76.763374,0
498774,W Harrisburg Pike & Tioga Ave,40.199997,-76.763489,0
498775,Adelia St & E Water St,40.200001,-76.721291,0
498776,W Harrisburg Pike opp. Wayne Ave,40.200123,-76.765327,0
498777,E Main St & N Pine St,40.200226,-76.729851,0
498778,W Harrisburg Pike & Wayne Ave,40.200272,-76.765259,0
498779,E Main St & N Pine St,40.200466,-76.729591,0
498780,Hoffer St & E Main St,40.200645,-76.71991,0
498781,E Main St & Spruce St,40.200756,-76.728348,0
498782,W Harrisburg Pike opp. Florentine St,40.20079,-76.767433,0
498783,W Harrisburg Pike & Florentine St,40.200851,-76.767227,0
498785,E Main St & Spruce St,40.200981,-76.728157,0
498786,E Main St & N Race St,40.201096,-76.726273,0
498787,Hanover St & High St (Carlisle Courthouse),40.201134,-77.189011,0
498788,E Main & Race St,40.201275,-76.725845,0
498789,E Main St opp. Mid-Town Plaza,40.201305,-76.722626,0
498790,Hanover St & High St (Carlisle Courthouse),40.20171,-77.189201,0
498791,W Harrisburg Pike @ McDonald's,40.201752,-76.770081,0
498792,Louise Dr @ Members 1st Bank,40.201809,-76.960129,0
498793,W Harrisburg Pike @ Highspire Plaza,40.2019,-76.770065,0
498794,Ritter Rd @ #5050 (Stop 3),40.202255,-76.965355,0
498795,2nd St & White House Ln,40.202366,-76.771729,0
498796,W Harrisburg Pike & White House Ln,40.202377,-76.771294,0
498797,2nd St & Crescent St,40.203075,-76.773621,0
498798,2nd St & Crescent St,40.203205,-76.773506,0
498799,N 2nd St & Ligan St,40.203781,-76.775169,0
498800,N 2nd St & Ligan St,40.203823,-76.775925,0
498801,Louise Dr opp. Ritter Rd (Erie Insurance),40.203934,-76.956543,0
498802,2nd St & Hanover St,40.204315,-76.777649,0
498803,Ritter Rd @ #1020 (Stop 2),40.204445,-76.961723,0
498804,N Hanover St & North St,40.204468,-77.188553,0
498805,2nd St & Hanover St,40.204552,-76.777885,0
498806,2nd St & Franklin St,40.205147,-76.780434,0
498807,2nd St & Franklin St,40.205212,-76.780167,0
498808,Ritter Rd @ Hampton Hotel (Stop 1),40.205528,-76.957901,0
498809,Westport Dr @ PHEAA,40.205616,-76.950958,0
498810,2nd St & Hammaker St,40.205799,-76.7827,0
498813,2nd St & Ann St,40.206367,-76.78463,0
498814,N Hanover St & Kerrs Ave,40.206467,-77.187187,0
498815,2nd St & Ann St,40.206505,-76.784615,0
498817,2nd St & Lumber St,40.207664,-76.788017,0
498818,2nd St & Lumber St,40.207947,-76.788162,0
498819,Wilson Ln @ Lindham Court Apartments,40.208496,-76.972961,0
498820,Wilson Rd & Lancaster Blvd (LifeCare Hospitals),40.208527,-76.973183,0
498821,W Main St opp. W Simpson St,40.209187,-77.022148,0
498822,2nd St & Broad St,40.209167,-76.790939,0
498824,2nd St & Commerce St,40.209476,-76.791931,0
498825,W Simpson St & S Broad St,40.209557,-77.017059,0
498826,W Simpson St & S Washington St,40.210052,-77.01432,0
498827,W Main St & West St,40.21006,-77.019249,0
498828,W Simpson St & S York St,40.210251,-77.013245,0
498830,2nd St & Race St,40.210358,-76.794136,0
498831,2nd St & Race St,40.210449,-76.793976,0
498832,W Main St opp. S Broad St,40.21059,-77.017418,0
498834,2nd St & Wetzel St,40.211044,-76.795547,0
498835,W Main St & N Washington St,40.211174,-77.015442,0
498837,Lancaster Blvd & Geneva Dr,40.2113,-76.975159,0
498838,2nd St @ Royal Mart Gas Station,40.211327,-76.795784,0
498839,York St & W Main St,40.211674,-77.013214,0
498840,W Main St & York St,40.211861,-77.013145,0
498843,W Main St & High St,40.21207,-77.011894,0
498844,W Main St & High St,40.21225,-77.011818,0
498845,W Main St & Frederick St,40.212502,-77.01049,0
498846,W Main St & Frederick St,40.212624,-77.010536,0
498847,Main St & Market St,40.213215,-77.007919,0
498848,Main St & Market St (Mechanicsburg),40.21336,-77.00798,0
498849,Wesley Dr & Bethany Dr,40.213432,-76.970703,0
498850,S Front St opp. T St,40.213741,-76.801193,0
498851,E Main St & Arch St,40.213741,-77.006172,0
498852,S Front St & T St,40.213833,-76.800964,0
498853,E Main St & Arch St,40.213932,-77.006149,0
498854,Winston Dr & Royal Dr,40.214153,-76.973335,0
498855,E Main & Race St,40.214252,-77.004456,0
498856,E Main St & Race St,40.214417,-77.004326,0
498857,S Front St opp. R St,40.214458,-76.80603,0
498858,E Main St & Walnut St,40.214691,-77.002838,0
498859,S Front St & R St,40.214699,-76.806557,0
498860,Wesley Dr & Royal Dr,40.214767,-76.972633,0
498861,E Main St & Walnut St,40.21487,-77.002754,0
498862,E Main St & S Chestnut St,40.215115,-77.001572,0
498863,S Front St opp. Felton St,40.215073,-76.809753,0
498865,S Front St & Felton St,40.215199,-76.809494,0
498866,E Main St & S Filbert,40.215462,-76.999481,0
498867,E Main St opp. S Filbert St,40.215603,-76.999535,0
498868,E Main St & Norway St,40.215904,-76.99749,0
498874,Weis Markets (Simpson Ferry Rd),40.218334,-76.974442,0
498877,E Trindle Rd & Fetrow Dr,40.218597,-76.988831,0
498878,E Trindle Rd opp. Fetrow Dr,40.218735,-76.988831,0
498879,Harrisburg Pike & West Pointe Dr,40.218975,-77.166367,0
498882,E Trindle Rd @ #5234,40.220043,-76.985031,0
498884,E Trindle Rd @ #5229,40.220394,-76.984604,0
498885,S West Ave & W Main St,40.220901,-76.964478,0
498886,Capital City Airport,40.221066,-76.853836,0
498888,E Trindle Rd & Sheely Ln,40.221176,-76.982109,0
498891,E Trindle Rd opp. Sheely Ln,40.221313,-76.982262,0
498892,Washington Ave & W Main St,40.221382,-76.962204,0
498893,E Trindle Rd opp. Trailer Court,40.221527,-76.981239,0
498895,E Trindle Rd @ Trailer Court,40.221935,-76.980721,0
498898,W Main St & Rupp Ave,40.222153,-76.959656,0
498899,Capital City Mall,40.222149,-76.932068,0
498901,W Main St & Eberly Ave,40.222504,-76.957382,0
498904,Eberly Ave & W Main St,40.222706,-76.957169,0
498905,Main St & Market St (Shiremanstown),40.223091,-76.954803,0
498909,E Main St & Locust St,40.223278,-76.953697,0
498910,Fairview Plaza,40.223305,-76.858589,0
498912,E Main St & S Spruce St,40.223557,-76.9524,0
498913,Bridge St & Miramar St,40.223637,-76.860344,0
498914,Eutaw Ave & 3rd St,40.22374,-76.867271,0
498915,Ross Ave & Novara St,40.223766,-76.856529,0
498917,E Main St opp. S Spruce St,40.223778,-76.952362,0
498919,Eutaw Ave & 3rd St,40.22385,-76.867165,0
498920,S Front St opp. Chambers St,40.223949,-76.8265,0
498922,E Trindle Rd @ #5108,40.224106,-76.974571,0
498923,E Trindle Rd @ #5108,40.224232,-76.974625,0
498924,E Main St & High St,40.224243,-76.950165,0
498926,3rd St & Geary Ave,40.224403,-76.86631,0
498927,S Front St & Chamber St (Family Dollar),40.224487,-76.826958,0
498929,Bridge St & Front St,40.224606,-76.861351,0
498930,Eutaw & 4th St,40.224628,-76.868736,0
498931,Eutaw Ave & 4th St,40.224651,-76.868484,0
498932,E Main St & St Johns Church Rd,40.224686,-76.947052,0
498934,E Main St & St. Johns Church Rd,40.224857,-76.94722,0
498937,S Front St & Hoffer St,40.225105,-76.827782,0
498939,3rd St & Reno Ave,40.22533,-76.865623,0
498940,Mechanicsburg NSA - K St & 4th Ave (Bldg #311),40.22541,-76.984184,0
498942,Mechanicsburg NSA - K St & 4th Ave (Bldgs #310/311),40.225517,-76.983948,0
498943,Bridge St & 2nd St,40.225578,-76.862961,0
498944,Eutaw Ave & 5th St,40.225632,-76.870087,0
498946,5th St & Eutaw Ave,40.225731,-76.870209,0
498948,E Trindle Rd opp. S Sporting Hill Rd,40.225918,-76.969757,0
498949,S Front St & Dupont St,40.225979,-76.82885,0
498950,S Front St opp. Dupont St,40.225979,-76.829094,0
498951,Mechanicsburg NSA - 4th Ave & I St (Bldg #309),40.225986,-76.985886,0
498952,Mechanicsburg NSA - O St & 3rd Ave (Bldg #214),40.225986,-76.979248,0
498953,E Trindle Rd & S Sporting Hill Rd,40.225986,-76.970139,0
498954,Mechanicsburg NSA - O St & 3rd Ave (Bldg #214),40.226124,-76.978951,0
498955,Mechanicsburg NSA - 4th Ave & I St (Bldgs #409/410),40.226082,-76.985779,0
498956,5th St & Geary Ave,40.226303,-76.869408,0
498957,5th St & Geary Ave,40.226486,-76.869415,0
498958,Bridge St & 3rd St,40.226498,-76.864136,0
498959,E Trindle Rd @ Country Meadows Living Center,40.22662,-76.967903,0
498961,Mechanicsburg NSA - 4th Ave & G St (Bldgs #307/407),40.226669,-76.987877,0
498964,5th St & Reno Ave,40.227119,-76.868561,0
498965,Reno Ave & 5th St,40.227196,-76.868698,0
498966,Mechanicsburg NSA - K St & 3rd Ave (Bldg #310),40.2272,-76.982841,0
498967,S Front St & Washington St,40.227211,-76.830299,0
498968,Bridge St & 4th St,40.227489,-76.865768,0
498969,Brandt Ave & Beacon Hill Rd,40.227806,-76.870636,0
498970,E Trindle Rd opp. Manor Dr,40.228027,-76.964043,0
498972,E Trindle Rd & Manor Dr,40.228092,-76.964264,0
498974,S Front St & Highland St,40.228348,-76.831589,0
498975,Bridge St & 5th St,40.228367,-76.867203,0
498977,Gettysburg Rd & 28th St,40.228523,-76.925659,0
498980,Gettysburg Rd & Schuylkill Ave,40.228622,-76.922318,0
498981,E Trindle Rd opp. St Marks Rd,40.229061,-76.961082,0
498982,E Trindle Rd & St Marks Rd,40.229282,-76.96096,0
498983,Brandt Ave & 9th St,40.229385,-76.874763,0
498984,E Trindle Rd & Railroad Ave,40.229485,-76.959709,0
498985,Carlisle Rd & Orchard Rd,40.229492,-76.916161,0
498986,Carlisle Rd & Orchard Rd,40.229538,-76.91597,0
498987,Bridge St & 6th St,40.229546,-76.869164,0
498988,Gettysburg Rd & Spera Dr,40.229618,-76.920319,0
498989,Carlisle Rd opp. S 20th St,40.22963,-76.914322,0
498990,Bridge St & 6th St,40.229633,-76.869019,0
498992,Mohn St & S Front St,40.229675,-76.832977,0
498993,S Front St & Mohn St,40.229748,-76.833313,0
498995,Carlisle Rd & S 20th St,40.229809,-76.913994,0
498996,E Trindle Rd opp. Brian St (Delbrook Manor Apartments),40.229927,-76.958794,0
498997,Brandt Ave & Terrace Dr,40.230007,-76.87767,0
498998,E Trindle Rd & Brian St (Delbrook Manor Apartments),40.230064,-76.958908,0
498999,Mohn St & S 2nd St,40.23011,-76.832314,0
499000,Bridge St & 7th St,40.230183,-76.8703,0
499001,Mohn St & S 2nd St,40.230125,-76.832191,0
499002,Bridge St & 7th St,40.230267,-76.870125,0
499003,Lower Allen Shopping Center,40.230366,-76.919144,0
499004,S Front St & Strawberry Alley,40.230385,-76.833794,0
892221,Main St @ #659,40.230297,-76.820023,0
499006,Carlisle Rd opp. S 19th St,40.230507,-76.909943,0
892223,Main St & Elm St,40.234169,-76.817818,0
892224,Main St & Jones St,40.235382,-76.817253,0
499009,Carlisle Rd & S 19th St,40.230606,-76.910065,0
499010,Bridge St & 8th St,40.230679,-76.87101,0
499011,Mechanicsburg NSA - G St & 2nd Ave (Bldg #107),40.230705,-76.985611,0
499012,S Front St & Strawberry Alley,40.230721,-76.834366,0
499013,Brandt Ave & Barbara St,40.230747,-76.880882,0
499016,Carlisle Rd & Creek Rd,40.230946,-76.907509,0
499017,Carlisle Rd & S 18th St,40.231125,-76.907593,0
499018,Carlisle Rd opp. Grace Church,40.231178,-76.905205,0
499019,Bridge St & 9th St,40.231236,-76.871483,0
499020,Mohn St opp. Hoy Towers,40.23127,-76.830688,0
499022,Carlisle Rd @ Grace Church,40.23135,-76.905174,0
499023,Brandt Ave & 15th St,40.231365,-76.882362,0
499024,E Trindle Rd & St Johns Church Rd,40.231472,-76.954132,0
499025,Carlisle Rd @ #1516,40.231537,-76.903214,0
499026,E Trindle Rd & St Johns Church Rd,40.231583,-76.954666,0
499027,Lowther Rd & Commercial Dr,40.231586,-76.901321,0
499029,S Front St opp. Chestnut St,40.231728,-76.835449,0
499031,S Front St & Chestnut St,40.23175,-76.835304,0
499033,Brandt Ave & 16th St,40.231995,-76.884293,0
499034,Bridge St & 11th St,40.232208,-76.872841,0
499035,S 2nd St & Chestnut St,40.232334,-76.83474,0
499036,Lowther Rd opp. Manchester Rd,40.232571,-76.900139,0
499037,S Front St & Swatara St,40.232681,-76.836479,0
499038,S Front St opp. Swatara St,40.232681,-76.836746,0
499039,E Trindle Rd opp. Central Blvd,40.232735,-76.950478,0
499040,Mohn St opp. Latsha Towers,40.232796,-76.82933,0
499042,Latsha Towers,40.233124,-76.829315,0
499043,E Trindle Rd opp. Oak Ave,40.233276,-76.949013,0
499044,S 2nd St & Swatara St,40.233379,-76.836166,0
499045,E Trindle Rd & Oak Ave,40.233467,-76.94912,0
499046,S Front St & Walnut St (Rite-Aid),40.233891,-76.838608,0
499047,Bridge St & Park Ave,40.233932,-76.875168,0
499048,Norman Rd & Lowther Rd,40.233959,-76.898125,0
499050,S 2nd St & Elm St,40.234047,-76.837234,0
499051,S Front St & Walnut St,40.234047,-76.8386,0
499053,E Trindle Rd opp. S 39th St,40.2341,-76.946709,0
499055,E Trindle Rd & S 39th St,40.234264,-76.946808,0
499056,16th St & Elm St,40.234596,-76.881844,0
499057,S 2nd St & Walnut St,40.234623,-76.838272,0
499058,E Trindle Rd & S 38th St,40.234688,-76.945557,0
499059,E Trindle Rd & Fallowfield Dr (YWCA),40.234692,-76.945,0
499060,Carlisle Pike @ Country Club Rd,40.234886,-77.131386,0
499061,Lowther Rd opp. Letchworth Rd,40.235012,-76.896385,0
499062,Bridge St & 15th St,40.235104,-76.876686,0
499063,N Front St & Pine St,40.235172,-76.841042,0
499064,N Front St & Pine St,40.235264,-76.84153,0
499067,16th St & Anna St,40.235386,-76.880707,0
499068,E Trindle Rd & S 36th St,40.235451,-76.942696,0
499069,Highland St opp. Mohn St,40.235527,-76.823196,0
499070,Highland St opp. Livingston St,40.2356,-76.823219,0
499071,E Trindle Rd & S 36th St,40.235699,-76.942719,0
499074,Camp Hill Mall (Barnes & Noble),40.235809,-76.934708,0
499075,Pine St & N 2nd St,40.235886,-76.840675,0
499076,N Front St opp. Adams St,40.235931,-76.843361,0
499077,N Front St & Adams St,40.235973,-76.843086,0
499078,Mohn St & Kelker St,40.236053,-76.824402,0
499079,N 32nd St & Yale Ave (opp. Camp Hill Mall),40.236115,-76.933472,0
499080,E Trindle Rd opp. S 35th St,40.236233,-76.940491,0
499081,N Front St opp. Lincoln St,40.236458,-76.84481,0
499082,E Trindle Rd & S 35th St,40.236477,-76.940407,0
499083,N Front St & Lincoln St,40.236507,-76.844582,0
499084,16th St & Bridge St,40.236485,-76.87883,0
499086,E Trindle Rd & November Dr,40.23674,-76.939034,0
499087,Pine St & N 4th St,40.236832,-76.839531,0
499089,N Front St opp. Conestoga St,40.236942,-76.846107,0
499090,N Front St & Conestoga St,40.236961,-76.845764,0
499091,Carlisle Pike & Sporting Hill Rd,40.237129,-76.972359,0
499092,Pine St & Bailey St,40.237209,-76.839348,0
499094,Bridge St & Bailey St,40.237953,-76.881294,0
499095,Carlisle Pike & Sporting Hill Rd,40.237286,-76.971718,0
499096,Bridge St & Bailey St,40.237316,-76.880478,0
499097,E Trindle Rd opp. S 34th St,40.237328,-76.93734,0
499098,N Front St opp. Jefferson St,40.237392,-76.847267,0
499100,N Front St & Jefferson St,40.237469,-76.847092,0
499101,E Trindle Rd & S 34th St,40.237572,-76.93734,0
499103,N Front St opp. Eleanor St,40.237946,-76.848602,0
499104,N Harrisburg St & Pine St,40.237961,-76.838478,0
499106,N Front St & Eleanor St,40.238079,-76.848595,0
499107,Highland St opp. Hanshue St,40.238476,-76.820038,0
499108,N Front St & Franklin St,40.238541,-76.849991,0
499109,N Front St & Franklin St,40.238541,-76.849709,0
499110,Hanshue St & Highland St,40.238571,-76.820076,0
499111,Bridge St & Haldeman Blvd,40.238598,-76.882851,0
499112,Bridge St & Haldeman Ave,40.238632,-76.882484,0
499113,N 32nd St opp. E Trindle Rd,40.238724,-76.934151,0
499114,Market St & 36th St,40.239174,-76.943558,0
499115,N Harrisburg St & Adams St,40.239189,-76.840431,0
499116,Hummel Ave & S 10th St,40.23922,-76.901131,0
499117,Hummel Ave & Peach St,40.239269,-76.900917,0
499118,Bridge St & Carol St,40.239361,-76.884415,0
499120,Bridge St & Carol St,40.239502,-76.884285,0
499121,Hanshue St & Dewey St,40.23951,-76.820099,0
499122,N Front St opp. Gibson St,40.239685,-76.852341,0
499123,N Front St & Gibson St,40.239693,-76.852066,0
499124,Hummel Ave & S 9th St,40.239803,-76.899086,0
499126,Market St & 31st St (Camp Hill),40.239841,-76.933304,0
499127,Market St & 32nd St (Camp Hill),40.239895,-76.93438,0
499128,Market St & 19th St (Camp Hill),40.239929,-76.915894,0
499129,Market St & 21st St (Lemoyne),40.239929,-76.919754,0
499130,Market St & 19th St (Lemoyne),40.239929,-76.915901,0
499131,Market St & S 18th St (Camp Hill),40.239941,-76.914764,0
499132,Market St & 21st St (Camp Hill),40.239941,-76.919754,0
499134,Hummel Ave & S 9th St,40.239948,-76.899246,0
499135,Market St & S 17th St (Camp Hill),40.239956,-76.91304,0
499137,Market St & 31st St (Camp Hill),40.240009,-76.933296,0
499138,Market St & 30th St (Camp Hill),40.240028,-76.931046,0
499140,Market St & 21st St (Camp Hill),40.240051,-76.919655,0
499142,Market St & N 20th St (Camp Hill),40.240055,-76.91832,0
499143,S 3rd St & Clark St,40.240063,-76.885384,0
499145,Market St & 19th St (Camp Hill),40.240063,-76.916199,0
499146,Market St opp. S 18th St (Camp Hill),40.240067,-76.914635,0
499148,Market St & N 17th St (Lemoyne),40.24007,-76.913895,0
499150,Market St opp. S 17th St (Camp Hill),40.240105,-76.913155,0
499151,Market St @ Manor Care (opp. S 17th St),40.240124,-76.913116,0
499152,Market St & 29th St (Camp Hill),40.240128,-76.929871,0
499156,Market St & 30th St (Camp Hill),40.240158,-76.931274,0
499157,S Cameron St @ Rozman Furniture,40.240231,-76.853165,0
499158,Market St & S 27th St (Camp Hill),40.240257,-76.928253,0
499159,Market St & 29th St (Camp Hill),40.240261,-76.929939,0
499160,N Harrisburg St & Bessemer St,40.240269,-76.841949,0
499162,Market St & 29th St,40.240273,-76.929947,0
499163,Market St opp. N 23rd St (Camp Hill),40.24028,-76.923576,0
499166,Market St & 22nd St (Camp Hill),40.240307,-76.922592,0
499167,Market St & 26th St (Camp Hill),40.240387,-76.926636,0
499168,Market St & 26th St (Lemoyne),40.240395,-76.926636,0
499169,Market St & S 16th St (Camp Hill),40.24041,-76.911766,0
499171,Market St & 24th St (Lemoyne),40.240414,-76.925194,0
499172,Market St & N 27th St (Camp Hill),40.240417,-76.928017,0
499173,Market St & 24th St (Camp Hill),40.240421,-76.925171,0
499174,McDonald's - Eisenhower Blvd (Highway Stop),40.240379,-76.805664,0
499177,Market St & 26th St (Camp Hill),40.240536,-76.926643,0
499179,Market St & 25th St (Camp Hill),40.240582,-76.925728,0
499181,S 3rd St & Walton St,40.240742,-76.886948,0
499183,S 3rd St & Walton St,40.240688,-76.886589,0
499184,Lemoyne Transfer Center,40.2407,-76.903236,0
499186,N Harrisburg St & Cameron St,40.240746,-76.842812,0
499188,Hummel Ave & S 8th St,40.240753,-76.897881,0
499189,Market St & N 15th St,40.240757,-76.911285,0
499190,Market St & N 15th St (Lemoyne),40.240761,-76.911255,0
499191,Market St & S 15th St (Camp Hill),40.240845,-76.910507,0
499193,S Cameron St @ #1678,40.241253,-76.855324,0
499194,Hummel Ave & S 7th St,40.241268,-76.896629,0
499195,Hanshue St & N Harrisburg St,40.241272,-76.817612,0
499198,Hummel Ave & S 7th St,40.241425,-76.896805,0
499200,Market St & 12th St (opp. West Shore Plaza),40.241669,-76.908607,0
499202,12th St and Market St (Lemoyne),40.241749,-76.907837,0
499205,Market St opp. Smith Ford,40.242283,-76.906815,0
499207,Hummel Ave & S 5th St,40.242767,-76.894196,0
499208,Market St opp. N 10th St (Lemoyne),40.24284,-76.904678,0
499209,Hummel Ave & S 5th St,40.243,-76.894218,0
499210,Market St & N 10th St (Lemoyne),40.243031,-76.904633,0
499211,N 32nd St & Lincoln St,40.243069,-76.935371,0
499212,Market St opp. N 9th St (Lemoyne),40.243172,-76.903679,0
499213,S Cameron St & S 13th St,40.243195,-76.858131,0
499215,S 19th St & Gibson Blvd,40.243317,-76.848877,0
499216,S Cameron St & S 13th St,40.24332,-76.857994,0
499218,Market St & N 9th St (Lemoyne),40.243401,-76.903549,0
499219,Hummel Ave & S 4th St,40.243507,-76.893021,0
499220,Hummel Ave & S 4th St,40.243687,-76.89312,0
499222,Market St & 8th St (Lemoyne),40.24395,-76.901421,0
499223,Market St & 8th St (Lemoyne),40.244144,-76.901344,0
499224,Hummel Ave & S 3rd St,40.244324,-76.891602,0
499225,Hummel Ave & S 3rd St,40.244419,-76.891945,0
499227,S Cameron St opp. Allison St,40.244469,-76.859818,0
499229,S Cameron St & Allison St,40.244537,-76.859627,0
499231,Gibson Blvd & UPS Dr,40.244812,-76.84684,0
499232,Market St @ Lemoyne Middle School (N 7th St),40.244846,-76.899315,0
499236,Gibson Blvd & Bobali Dr,40.245144,-76.846901,0
499238,Subway (High Pointe Commons),40.245342,-76.804054,0
499239,Market St @ Speedway (Lemoyne),40.245293,-76.898048,0
499240,Bosler Ave & S 3rd St,40.245361,-76.892685,0
499243,Market St opp. N 5th St (Lemoyne),40.245571,-76.896774,0
499244,Market St & N 5th St (Lemoyne),40.245781,-76.896652,0
499245,S Cameron St opp. Magnolia St,40.245861,-76.861542,0
499246,High Pointe Commons @ Target,40.246113,-76.806534,0
499249,High Pointe Commons @ JCPenney,40.246449,-76.802971,0
499252,Market St & 3rd St (Lemoyne),40.246635,-76.893784,0
499254,Market St & 3rd St (Lemoyne),40.246479,-76.894363,0
499255,Market St & 3rd St (Lemoyne),40.246647,-76.893738,0
499256,N Harrisburg St @ Chestnut Pointe Apartments,40.24667,-76.824562,0
499257,Market St & 3rd St (Lemoyne),40.246719,-76.894058,0
499259,S Cameron St opp. Hanover St,40.246849,-76.862732,0
499260,S Cameron St & Hanover St,40.24691,-76.86248,0
499262,N Harrisburg St & Chambers Hill Rd,40.247108,-76.825859,0
499265,S 13th St & Hanover St,40.248013,-76.860962,0
499269,S 13th St opp. Oyler Rd,40.248764,-76.861481,0
499272,Hanover St - Hall Manor @ Bldg #49,40.249146,-76.855049,0
499273,Hanover St - Hall Manor @ Bldg #53,40.249561,-76.855247,0
499275,Gibson Blvd @ Juvenile Center,40.249306,-76.842232,0
499276,Hanover St - Hall Manor opp. Bldg #46,40.249226,-76.859085,0
499277,S Cameron St opp. #1171,40.249451,-76.865067,0
499278,Hanover St - Hall Manor @ Bldg #38,40.249245,-76.859169,0
499279,S 13th St & Lowell St,40.249538,-76.861923,0
499281,N 21st St & Parkside Rd,40.249905,-76.923042,0
499283,S 19th St & Caledonia St,40.249939,-76.852379,0
499284,S 17th St & Hanover St (Boys Club),40.249966,-76.855446,0
499285,S 17th St & Hanover St (Boys Club),40.250126,-76.855591,0
499287,S 13th St & Cloverly Rd,40.250744,-76.862785,0
499288,S Cameron St & Sycamore St,40.250847,-76.866058,0
499289,S Cameron St & Sycamore St,40.250919,-76.86586,0
499290,S Front St & Houck St (Wormleysburg),40.251286,-76.893555,0
499293,S Front St opp. Houck St,40.251366,-76.893356,0
499294,S 13th St & Sycamore St,40.251369,-76.863129,0
499297,S 17th St & Sumner Rd,40.251537,-76.857132,0
499298,S 17th St opp. Sumner Rd,40.251541,-76.857071,0
499301,S 2nd St & 3rd Ave (Wormleysburg),40.251797,-76.896286,0
499302,S 2nd St & 3rd Ave (Wormleysburg),40.251892,-76.896164,0
499303,Harrisburg Mall,40.251953,-76.828705,0
499308,Poplar St & S Front St (Wormleysburg),40.252014,-76.894585,0
499309,S 13th St & Wayne St,40.252026,-76.863632,0
499311,Poplar St & S Front St (Wormleysburg),40.251961,-76.894753,0
499317,Erford Rd @ Harrisburg Academy,40.25219,-76.912842,0
499320,S 19th St & Pemberton St,40.252262,-76.853455,0
499321,S 2nd St & Market St (Wormleysburg),40.252289,-76.897034,0
499324,S 19th St & Pemberton St,40.252377,-76.853706,0
499325,Erford Rd opp. Harrisburg Academy,40.252357,-76.913071,0
499329,S 2nd St & Market St (Wormleysburg),40.252396,-76.896912,0
499330,Friendship Rd & TecPort Dr,40.252262,-76.824852,0
499332,Holy Spirit Hospital Dr opp. Ridge Rd,40.252533,-76.92363,0
499333,Walnut St & Riverview Rd,40.252567,-76.907021,0
499335,S 13th St & Revere St,40.252644,-76.863815,0
499337,S 13th St & Revere St,40.252647,-76.86396,0
499338,Walnut St opp. Riverview Rd,40.252857,-76.906952,0
499339,S 17th St & Sycamore St,40.252857,-76.857826,0
499340,Sycamore St & S 17th St,40.252945,-76.857819,0
499342,Holy Spirit Hospital,40.25312,-76.921692,0
499343,Sycamore St & S 18th St,40.253258,-76.856522,0
499345,S 2nd St opp. Locust St (Wormleysburg),40.253273,-76.898468,0
499347,S 2nd St & Locust St (Wormleysburg),40.253288,-76.898232,0
499348,Sycamore St & S 18th St,40.253342,-76.856377,0
499350,Sycamore St & Rolleston St,40.253555,-76.855522,0
499351,Sycamore St & Rolleston St,40.253635,-76.85537,0
499356,S 19th St & Sycamore St,40.253857,-76.854286,0
499358,City Island (South Side Shelter),40.253956,-76.887108,0
499359,S 19th St & Sycamore St,40.253925,-76.854424,0
499360,City Island (North Side Shelter),40.253944,-76.887489,0
499363,Sycamore St & Hudson St,40.254139,-76.853355,0
499365,N 2nd St & Ferry St (Wormleysburg),40.254242,-76.899902,0
499367,2nd St & Ferry St (Wormleysburg),40.254261,-76.899673,0
499368,Sycamore St & Hudson St,40.25423,-76.853203,0
499371,S Cameron St opp. Hanna St,40.254333,-76.868263,0
499372,Paxton St & Mall Rd (opp. Park Run Apartments),40.25452,-76.833008,0
499373,Walnut St & Glen Rd (Lemoyne),40.254372,-76.904266,0
499376,Erford Rd & Mumma Rd,40.254436,-76.913841,0
499381,Sycamore St & S 20th St,40.25452,-76.85218,0
499382,Paxton St & Sycamore St,40.254642,-76.851646,0
499385,S Cameron St & Hanna St,40.254627,-76.868698,0
499389,S 19th St & Paxton St,40.254917,-76.854927,0
499390,N 2nd St & Chestnut St (Wormleysburg),40.255104,-76.900635,0
499393,Paxton St opp. Enterprise Rent-A-Car,40.255474,-76.844421,0
499395,City Park Dr opp. Parkview Ln,40.255604,-76.833809,0
499396,Paxton St @ Enterprise Rent-A-Car,40.255577,-76.844429,0
499397,Paxton St opp. S 31st St,40.255718,-76.837181,0
499398,Paxton St & S 28th St,40.255791,-76.841812,0
499400,City Park Dr & Parkview Ln,40.255707,-76.833817,0
499401,Paxton St opp. Dodge City Restaurant,40.255768,-76.871002,0
499403,Paxton St opp. S 29th St,40.255894,-76.83905,0
499405,N 2nd St & Walnut St (Wormleysburg),40.255817,-76.901711,0
499406,Paxton St & S 31st St,40.255753,-76.83712,0
499407,S 13th St & Paxton St,40.255821,-76.86528,0
499408,Paxton St opp. S 28th St,40.255859,-76.841682,0
499410,N 2nd St & Walnut St (Wormleysburg),40.255913,-76.901566,0
499411,Erford Rd & Hunter Ln,40.255993,-76.914909,0
499413,Paxton St & S 29th St,40.255936,-76.839111,0
499414,S 13th St & Paxton St,40.256165,-76.865639,0
499416,S 2nd St & Vine St,40.256729,-76.876106,0
499420,Erford Rd opp. Senate Ave,40.256996,-76.915955,0
499423,Derry St opp. N 40th St,40.257439,-76.816811,0
499425,Derry St & N 40th St,40.257614,-76.816864,0
499426,Derry St & S 41st St,40.257675,-76.813065,0
499427,Derry St opp. Oakleigh Ave,40.257706,-76.818962,0
499431,Derry St & Oakleigh Ave,40.257832,-76.818817,0
499432,Derry St @ CVS,40.257866,-76.820618,0
499433,Derry St opp. CVS,40.257977,-76.820503,0
499434,Derry St & 44th St,40.258072,-76.808495,0
499435,Derry St & S 43rd St,40.258121,-76.808975,0
499436,Derry St & 45th St,40.258121,-76.807243,0
499437,Derry St & S 38th St,40.258156,-76.823326,0
499438,Erford Rd @ Senate Plaza,40.257404,-76.916618,0
499439,Derry St & 46th St,40.258209,-76.806076,0
499440,Derry St & Rosewood Ln,40.258244,-76.822853,0
499442,Derry St & 45th St,40.258301,-76.807076,0
499444,Market St Bridge & Front St,40.25835,-76.882912,0
499445,Derry St & 48th St,40.258385,-76.804115,0
499446,S Cameron St @ #510,40.258495,-76.8713,0
499447,Market St Bridge & Front St,40.258507,-76.883034,0
499448,Derry St & 49th St,40.258598,-76.801933,0
499449,Derry St opp. Wilhelm Rd,40.258644,-76.827194,0
499450,Elm St & N 2nd St,40.258671,-76.90448,0
499451,Derry St & 50th St,40.258732,-76.799973,0
499452,Poplar Church Rd & Erford Rd,40.258724,-76.918205,0
499453,Derry St & Wilhelm Rd,40.258781,-76.827423,0
499460,Derry St & Paxtang Ave,40.258945,-76.831566,0
499462,Derry St & Hebron Ln (Post Office),40.258965,-76.797607,0
499463,Derry St & Swan St,40.258862,-76.829987,0
499465,S 2nd St & Chestnut St,40.258995,-76.880295,0
499466,S 13th St & Berryhill St,40.259048,-76.866959,0
499467,Market St & River St,40.259045,-76.882294,0
499470,S 13th St & Berryhill St,40.259113,-76.866898,0
499471,Derry St opp. Kelso St,40.259071,-76.833633,0
499474,Derry St & Kelso St,40.259209,-76.833694,0
499475,Derry St opp. N 32nd St,40.259228,-76.836388,0
499478,Derry St & N 31st St,40.259293,-76.837395,0
499481,Derry St & Park Terr,40.259308,-76.835213,0
499482,Derry St & N 32nd St,40.259377,-76.836227,0
499483,Derry St opp. N 30th St,40.25938,-76.838631,0
499485,S Cameron St @ Family Dollar,40.259399,-76.871819,0
499486,Derry St & S 29th St,40.25943,-76.839928,0
499488,Derry St & N 31st St,40.259449,-76.837379,0
499489,Derry St & S 28th St,40.259502,-76.840736,0
499492,Derry St & N 30th St,40.259529,-76.838509,0
499493,S 19th St & Brookwood St,40.259533,-76.856964,0
499495,Derry St & S 27th St,40.259571,-76.84156,0
499498,Derry St & S 29th St,40.259605,-76.839752,0
499499,Derry St & S 26th St,40.259632,-76.84272,0
499502,Derry St & S 28th St,40.259644,-76.84053,0
499507,Poplar Church Rd opp. Hunter Ln,40.259651,-76.917076,0
3407668,Grandview Ave @ #220,40.258533,-76.922264,0
3407669,Grandview Ave @ #240,40.25967,-76.920509,0
499547,Derry St & S 27th St,40.259712,-76.841408,0
499549,Market Square Transfer Center,40.259789,-76.881485,0
499554,Derry St & S 26th St,40.259796,-76.842514,0
499556,Derry St opp. S 25th St,40.25983,-76.844208,0
499559,Derry St & S 25th St,40.259933,-76.844124,0
499562,Highmark Blue Shield (Camp Hill),40.259972,-76.930511,0
499563,Derry St opp. S 24th St,40.259975,-76.846062,0
499564,S 3rd St & Chestnut St,40.260067,-76.879349,0
499565,Derry St & S 24th St,40.26009,-76.845932,0
499567,Derry St & S 23rd St,40.260105,-76.847977,0
1343344,Pennsboro Commons,40.288784,-76.946327,0
499569,Derry St & S 23rd St,40.260258,-76.847839,0
499572,S 13th St & Swatara St,40.260311,-76.867462,0
499573,Derry St & S 22nd St,40.260326,-76.850449,0
499574,S Cameron St & Kittatinny St,40.260384,-76.872368,0
499575,S 13th St & Swatara St,40.260399,-76.867577,0
499576,Derry St opp. S 22nd St,40.260475,-76.850311,0
499579,Derry St & S 21st St,40.260586,-76.852928,0
499581,Derry St & S 21st St,40.2607,-76.852692,0
499586,3rd St & Market St (Harrisburg),40.260857,-76.880821,0
499590,Derry St & S 20th St,40.261024,-76.855515,0
499592,Chestnut St & S 4th St,40.261074,-76.878311,0
499609,Derry St & S 20th St,40.261169,-76.855385,0
499611,Poplar Church Rd & W Foxcroft Dr,40.261227,-76.914825,0
499615,N 2nd St & Stella St,40.261272,-76.90712,0
499616,Derry St opp. Lawnford Wy,40.261375,-76.792213,0
843684,N 7th St & Peffer St,40.280251,-76.88813,0
843685,N 7th St & Muench St,40.278873,-76.887657,0
499622,Derry St & S 19th St,40.261513,-76.858253,0
843687,N 7th St & Hamilton St,40.276485,-76.886444,0
843688,N 7th St & Harris St,40.275253,-76.885696,0
499629,Derry St & S 19th St,40.261627,-76.857941,0
499631,N 3rd St & Walnut St,40.261665,-76.882286,0
2482104,Giant Food Stores (5005 Jonestown Road),40.306194,-76.803207,0
499641,S 13th St & Kittatinny St,40.261757,-76.868126,0
499648,S 13th St & Kittatinny St,40.261856,-76.868271,0
499650,Berryhill St & S 20th St,40.261852,-76.855911,0
499655,Derry St & S 18th St,40.261929,-76.86068,0
499662,N Front St & Stella St,40.261951,-76.906364,0
499668,Harrisburg Transportation Center (Aberdeen St side),40.262245,-76.878769,0
499671,Harrisburg Transportation Center (Market St side),40.262314,-76.879356,0
499673,S Cameron St @ Mulberry St Bridge,40.26202,-76.873291,0
499675,Berryhill St & S 20th St,40.262028,-76.855782,0
499676,Derry St & S 18th St,40.262074,-76.860497,0
499680,S 17th & Swatara St,40.261791,-76.862061,0
499681,Yverdon Dr & Poplar Church Rd,40.262112,-76.913483,0
499684,Derry St & S 17th St,40.26218,-76.862152,0
499685,Derry St & S 17th St,40.262264,-76.862465,0
499690,Derry St opp. Brightwood Career Institute,40.262188,-76.79097,0
499691,Derry St & S 17th St,40.262287,-76.862251,0
499699,Mulberry St & Sylvan Terr,40.262321,-76.872002,0
499705,Derry St & S 16th St,40.262344,-76.863777,0
499709,Berryhill St & S 21st St,40.262432,-76.853806,0
499711,Derry St opp. S 16th St,40.262486,-76.863808,0
